{
  "organizationId": "7bc05553-4b68-44e8-b7bc-37be63c6d9e9",
  "name": "main",
  "shortName": "string",
  "description": "string",
  "type": "root",
  "addresses": [{
    "type": "postal",
    "street": "Moreelsepark",
    "streetNumber": "48",
    "additional": "On the other side of the road",
    "postalCode": "3511 EP",
    "city": "Utrecht",
    "countryCode": "NL",
    "geolocation": {
      "latitude": 0,
      "longitude": 0
    }
  }],
  "link": "http://example.com",
  "logo": "http://example.com",
  "brin": "string",
  "parent": {
    "organizationId": "8bc05553-4b68-44e8-b7bc-37be63c6d9e9",
    "name": "parent",
    "shortName": "string",
    "description": "string",
    "type": "root",
    "addresses": [{
      "type": "postal",
      "street": "Moreelsepark",
      "streetNumber": "48",
      "additional": "On the other side of the road",
      "postalCode": "3511 EP",
      "city": "Utrecht",
      "countryCode": "NL",
      "geolocation": {
        "latitude": 0,
        "longitude": 0
      }
    }],
    "link": "http://example.com",
    "logo": "http://example.com",
    "brin": "string",
    "ext": {
      "extension": "something random"
    }
  },
  "children": [{
    "organizationId": "9bc05553-4b68-44e8-b7bc-37be63c6d9e9",
    "name": "child",
    "shortName": "string",
    "description": "string",
    "type": "root",
    "addresses": [{

      "type": "postal",
      "street": "Moreelsepark",
      "streetNumber": "48",
      "additional": "On the other side of the road",
      "postalCode": "3511 EP",
      "city": "Utrecht",
      "countryCode": "NL",
      "geolocation": {
        "latitude": 0,
        "longitude": 0
      }
    }],
    "link": "http://example.com",
    "logo": "http://example.com",
    "brin": "string"
  }]
}